{"maps":[{"id":2,"user_id":2,"title":"Интеллект-ГНСС","description":"","active":true,"state":0,"sort":0,"version":43,"coordinates":{"noid":[{"GPS":{"attr":{"sublocationid":3,"latitude_deg":55.84341,"longitude_deg":37.53777}}},{"GPS":{"attr":{"sublocationid":8,"latitude_deg":55.8434,"longitude_deg":37.53777}}},{"GPS":{"attr":{"sublocationid":9,"latitude_deg":55.84341,"longitude_deg":37.53778}}}]}},{"id":22,"user_id":2,"title":"Лаборатория (с камерой)","description":" ","active":true,"state":0,"sort":0,"version":34,"coordinates":{"noid":[{"GPS":{"attr":{"sublocationid":34,"latitude_deg":55.84340771,"longitude_deg":37.53854915}}}]}},{"id":3,"user_id":2,"title":"Niima_Lab(RTT)","description":" ","active":true,"state":0,"sort":0,"version":28,"coordinates":{"noid":[{"GPS":{"attr":{"sublocationid":4,"latitude_deg":55.84364841,"longitude_deg":37.5383073}}}]}},{"id":21,"user_id":2,"title":"Дорога","description":"","active":true,"state":0,"sort":0,"version":11,"coordinates":{"noid":[{"GPS":{"attr":{"sublocationid":33,"latitude_deg":55.84362384,"longitude_deg":37.53719866}}}]}},{"id":31,"user_id":47,"title":"Сириус","description":"","active":true,"state":0,"sort":0,"version":887,"coordinates":{"noid":[{"GPS":{"attr":{"sublocationid":44,"latitude_deg":43.41431461,"longitude_deg":39.95091855}}}]}},{"id":93,"user_id":6,"title":"progress_hunter","description":"","active":true,"state":0,"sort":0,"version":2,"coordinates":{"noid":[{"GPS":{"attr":{"sublocationid":120,"latitude_deg":55.84343708,"longitude_deg":37.53787001}}}]}},{"id":17,"user_id":2,"title":"BLE - Лаборатория","description":"","active":true,"state":0,"sort":0,"version":51,"coordinates":{"noid":[{"GPS":{"attr":{"sublocationid":25,"latitude_deg":55.84364764,"longitude_deg":37.5383035}}},{"GPS":{"attr":{"sublocationid":28,"latitude_deg":55.84340244,"longitude_deg":37.53807038}}}]}}]}